$GSENSORD,-0.120,-0.060,0.060
$GPRMC,141917.00,A,6001.31475,N,03013.95043,E,18.692,149.70,110416,,,A*50
$GPVTG,149.70,T,,M,18.692,N,34.618,K,A*3A
$GPGGA,141917.00,6001.31475,N,03013.95043,E,1,08,1.06,1.5,M,15.9,M,,*58
$GPGSV,4,1,15,01,03,010,08,02,08,151,25,03,06,037,,06,28,114,38*79
$GPGSV,4,2,15,12,58,258,27,14,27,314,26,15,04,205,05,17,36,058,22*71
$GPGSV,4,3,15,19,59,088,35,22,09,006,13,24,64,194,33,25,22,265,06*7D
$GPGSV,4,4,15,28,01,085,,32,26,316,28,33,12,230,*42
$GSENSORD,-0.120,-0.120,0.120
$GPRMC,141918.00,A,6001.31021,N,03013.95560,E,18.591,149.47,110416,,,A*5A
$GPVTG,149.47,T,,M,18.591,N,34.431,K,A*37
$GPGGA,141918.00,6001.31021,N,03013.95560,E,1,08,1.06,1.4,M,15.9,M,,*57
$GPGSV,4,1,15,01,03,010,08,02,08,151,31,03,06,037,,06,28,114,38*7C
$GPGSV,4,2,15,12,58,258,26,14,27,314,24,15,04,205,08,17,36,058,22*7F
$GPGSV,4,3,15,19,59,088,36,22,09,006,13,24,64,194,32,25,22,265,06*7F
$GPGSV,4,4,15,28,01,085,,32,26,316,28,33,12,230,*42
$GSENSORD,-0.120,-0.120,0.060
$GPRMC,141919.00,A,6001.30573,N,03013.96071,E,18.416,149.91,110416,,,A*5B
$GPVTG,149.91,T,,M,18.416,N,34.107,K,A*32
$GPGGA,141919.00,6001.30573,N,03013.96071,E,1,08,1.06,1.3,M,15.9,M,,*54
$GPGSV,4,1,15,01,03,010,08,02,08,151,28,03,06,037,,06,28,114,40*7B
$GPGSV,4,2,15,12,58,258,27,14,27,314,25,15,04,205,11,17,36,058,22*77
$GPGSV,4,3,15,19,59,088,36,22,09,006,14,24,64,194,33,25,22,265,06*79
$GPGSV,4,4,15,28,01,085,,32,26,316,28,33,12,230,*42
$GSENSORD,-0.120,-0.120,0.060
$GPRMC,141920.00,A,6001.30134,N,03013.96579,E,18.153,149.98,110416,,,A*56
$GPVTG,149.98,T,,M,18.153,N,33.619,K,A*30
$GPGGA,141920.00,6001.30134,N,03013.96579,E,1,08,1.38,1.2,M,15.9,M,,*58
$GPGSA,A,3,24,19,12,17,14,06,32,02,,,,,2.00,1.38,1.45*01
$GPGSV,4,1,15,01,03,010,,02,08,151,32,03,06,037,,06,28,114,39*76
$GPGSV,4,2,15,12,58,258,27,14,27,314,26,15,04,205,11,17,36,058,29*7F
$GPGSV,4,3,15,19,59,088,36,22,09,006,13,24,64,194,33,25,22,265,06*7E
$GPGSV,4,4,15,28,01,085,,32,26,316,27,33,12,230,*4D
$GSENSORD,-0.060,0.060,0.060
$GPRMC,141921.00,A,6001.29677,N,03013.97094,E,19.023,150.30,110416,,,A*55
$GPVTG,150.30,T,,M,19.023,N,35.231,K,A*35
$GPGGA,141921.00,6001.29677,N,03013.97094,E,1,08,1.06,1.1,M,15.9,M,,*58
$GPGSV,4,1,15,01,03,010,,02,08,151,27,03,06,037,,06,28,114,37*7C
$GPGSV,4,2,15,12,58,258,28,14,27,314,26,15,04,205,10,17,36,058,21*79
$GPGSV,4,3,15,19,59,088,35,22,09,006,12,24,64,194,33,25,22,265,08*72
$GPGSV,4,4,15,28,01,085,,32,26,316,27,33,12,230,*4D
$GSENSORD,0.250,-0.310,0.370
$GPRMC,141922.00,A,6001.29203,N,03013.97625,E,19.555,150.11,110416,,,A*5A
$GPVTG,150.11,T,,M,19.555,N,36.217,K,A*35
$GPGGA,141922.00,6001.29203,N,03013.97625,E,1,08,1.06,1.1,M,15.9,M,,*50
$GPGSV,4,1,15,01,03,010,,02,08,151,31,03,06,037,,06,28,114,38*74
$GPGSV,4,2,15,12,58,258,27,14,27,314,26,15,04,205,09,17,36,058,22*7D
$GPGSV,4,3,15,19,59,088,35,22,09,006,12,24,64,194,33,25,22,265,08*72
$GPGSV,4,4,15,28,01,085,,32,26,316,27,33,12,230,*4D
$GSENSORD,-0.060,-0.120,0.120
$GPRMC,141923.00,A,6001.28730,N,03013.98155,E,19.358,150.30,110416,,,A*58
$GPVTG,150.30,T,,M,19.358,N,35.851,K,A*36
$GPGGA,141923.00,6001.28730,N,03013.98155,E,1,08,1.06,1.0,M,15.9,M,,*5B
$GPGSV,4,1,15,01,03,010,,02,08,151,29,03,06,037,,06,28,114,38*7D
$GPGSV,4,2,15,12,58,258,26,14,27,314,26,15,04,205,09,17,36,058,22*7C
$GPGSV,4,3,15,19,59,088,35,22,09,006,11,24,64,194,33,25,22,265,*79
$GPGSV,4,4,15,28,01,085,,32,26,316,27,33,12,230,*4D
$GSENSORD,-0.370,-0.120,0.120
$GPRMC,141924.00,A,6001.28267,N,03013.98655,E,18.706,151.34,110416,,,A*54
$GPVTG,151.34,T,,M,18.706,N,34.644,K,A*36
$GPGGA,141924.00,6001.28267,N,03013.98655,E,1,08,1.06,0.9,M,15.9,M,,*54
$GPGSV,4,1,15,01,03,010,,02,08,151,30,03,06,037,,06,28,114,38*75
$GPGSV,4,2,15,12,58,258,27,14,27,314,26,15,04,205,09,17,36,058,30*7E
$GPGSV,4,3,15,19,59,088,36,22,09,006,11,24,64,194,33,25,22,265,*7A
$GPGSV,4,4,15,28,01,085,,32,26,316,26,33,12,230,*4C
$GSENSORD,-0.060,0.120,-0.120
$GPRMC,141925.00,A,6001.27836,N,03013.99160,E,17.771,149.51,110416,,,A*51
$GPVTG,149.51,T,,M,17.771,N,32.912,K,A*39
$GPGGA,141925.00,6001.27836,N,03013.99160,E,1,08,1.06,0.8,M,15.9,M,,*55
$GPGSV,4,1,15,01,03,010,,02,08,151,28,03,06,037,,06,28,114,38*7C
$GPGSV,4,2,15,12,58,258,26,14,27,314,26,15,04,205,09,17,36,058,31*7E
$GPGSV,4,3,15,19,59,088,36,22,09,006,10,24,64,194,33,25,22,265,*7B
$GPGSV,4,4,15,28,01,085,,32,26,316,27,33,12,230,*4D
$GSENSORD,0.060,0.120,0.120
$GPRMC,141926.00,A,6001.27414,N,03013.99665,E,17.837,150.04,110416,,,A*59
$GPVTG,150.04,T,,M,17.837,N,33.034,K,A*30
$GPGGA,141926.00,6001.27414,N,03013.99665,E,1,08,1.06,0.8,M,15.9,M,,*58
$GPGSV,4,1,15,01,03,010,,02,08,151,28,03,06,037,,06,28,114,37*73
$GPGSV,4,2,15,12,58,258,26,14,27,314,26,15,04,205,09,17,36,058,31*7E
$GPGSV,4,3,15,19,59,088,36,22,09,006,09,24,64,194,33,25,22,265,14*76
$GPGSV,4,4,15,28,01,085,,32,26,316,27,33,12,230,*4D
$GSENSORD,0.120,0.120,0.120
$GPRMC,141927.00,A,6001.26970,N,03014.00184,E,18.759,149.42,110416,,,A*5B
$GPVTG,149.42,T,,M,18.759,N,34.741,K,A*30
$GPGGA,141927.00,6001.26970,N,03014.00184,E,1,08,1.06,0.6,M,15.9,M,,*56
$GPGSV,4,1,15,01,03,010,,02,08,151,30,03,06,037,,06,28,114,39*74
$GPGSV,4,2,15,12,58,258,26,14,27,314,26,15,04,205,,17,36,058,32*74
$GPGSV,4,3,15,19,59,088,35,22,09,006,08,24,64,194,33,25,22,265,20*73
$GPGSV,4,4,15,28,01,085,,32,26,316,28,33,12,230,*42
$GSENSORD,0.120,-0.060,0.180
$GPRMC,141928.00,A,6001.26497,N,03014.00739,E,20.088,149.06,110416,,,A*50
$GPVTG,149.06,T,,M,20.088,N,37.203,K,A*30
$GPGGA,141928.00,6001.26497,N,03014.00739,E,1,09,1.06,0.5,M,15.9,M,,*5F
$GPGSA,A,3,24,19,12,17,14,06,32,25,02,,,,1.79,1.06,1.44*07
$GPGSV,4,1,15,01,03,010,,02,08,151,30,03,06,037,,06,28,114,29*75
$GPGSV,4,2,15,12,58,258,26,14,27,314,26,15,04,205,,17,36,058,32*74
$GPGSV,4,3,15,19,59,088,35,22,09,006,07,24,64,194,33,25,22,265,22*7E
$GPGSV,4,4,15,28,01,085,,32,26,316,29,33,12,230,*43
$GSENSORD,-0.120,-0.060,0.060
$GPRMC,141929.00,A,6001.26016,N,03014.01318,E,20.401,149.61,110416,,,A*5E
$GPVTG,149.61,T,,M,20.401,N,37.782,K,A*38
$GPGGA,141929.00,6001.26016,N,03014.01318,E,1,09,0.95,0.6,M,15.9,M,,*5D
$GPGSA,A,3,24,19,12,17,14,06,32,25,02,,,,1.68,0.95,1.39*06
$GPGSV,4,1,15,01,03,010,,02,08,151,31,03,06,037,,06,28,114,21*7C
$GPGSV,4,2,15,12,58,258,26,14,27,314,25,15,04,205,,17,36,058,31*74
$GPGSV,4,3,15,19,59,088,36,22,09,006,07,24,64,194,33,25,22,265,24*7B
$GPGSV,4,4,15,28,01,085,,32,26,315,28,33,12,230,*41
$GSENSORD,0.060,-0.060,0.060
$GPRMC,141930.00,A,6001.25525,N,03014.01898,E,20.591,149.50,110416,,,A*59
$GPVTG,149.50,T,,M,20.591,N,38.135,K,A*37
$GPGGA,141930.00,6001.25525,N,03014.01898,E,1,09,0.95,0.6,M,15.9,M,,*50
$GPGSA,A,3,24,19,12,17,14,06,32,25,02,,,,1.68,0.95,1.39*06
$GPGSV,4,1,15,01,03,010,,02,08,151,30,03,06,037,,06,28,114,21*7D
$GPGSV,4,2,15,12,58,258,26,14,27,314,25,15,04,205,,17,36,058,32*77
$GPGSV,4,3,15,19,59,088,35,22,09,006,07,24,64,194,33,25,22,265,24*78
$GPGSV,4,4,15,28,01,085,,32,26,315,29,33,12,230,*40
$GSENSORD,0.060,-0.060,-0.060
$GPRMC,141931.00,A,6001.25021,N,03014.02491,E,21.274,149.66,110416,,,A*57
$GPVTG,149.66,T,,M,21.274,N,39.400,K,A*3D
$GPGGA,141931.00,6001.25021,N,03014.02491,E,1,09,0.95,0.7,M,15.9,M,,*57
$GPGSA,A,3,24,19,12,17,14,06,32,25,02,,,,1.68,0.95,1.39*06
$GPGSV,4,1,15,01,03,010,,02,08,151,31,03,06,037,,06,28,114,21*7C
$GPGSV,4,2,15,12,58,258,26,14,27,314,25,15,04,205,,17,36,058,31*74
$GPGSV,4,3,15,19,59,088,35,22,09,006,07,24,64,194,33,25,22,265,23*7F
$GPGSV,4,4,15,28,01,085,,32,26,315,29,33,12,230,*40
$GSENSORD,0.180,-0.120,0.120
$GPRMC,141932.00,A,6001.24502,N,03014.03102,E,21.941,149.65,110416,,,A*51
$GPVTG,149.65,T,,M,21.941,N,40.634,K,A*38
$GPGGA,141932.00,6001.24502,N,03014.03102,E,1,09,0.95,0.8,M,15.9,M,,*50
$GPGSA,A,3,24,19,12,17,14,06,32,25,02,,,,1.68,0.95,1.39*06
$GPGSV,4,1,15,01,03,010,,02,08,151,30,03,06,037,,06,28,114,22*7E
$GPGSV,4,2,15,12,58,258,26,14,27,314,25,15,04,205,,17,36,058,31*74
$GPGSV,4,3,15,19,59,088,35,22,09,006,07,24,64,194,33,25,22,265,24*78
$GPGSV,4,4,15,28,01,085,,32,26,315,29,33,12,230,*40
$GSENSORD,-0.180,-0.180,-0.120
$GPRMC,141933.00,A,6001.23965,N,03014.03747,E,22.937,149.43,110416,,,A*5B
$GPVTG,149.43,T,,M,22.937,N,42.480,K,A*31
$GPGGA,141933.00,6001.23965,N,03014.03747,E,1,09,0.95,0.7,M,15.9,M,,*53
$GPGSA,A,3,24,19,12,17,14,06,32,25,02,,,,1.68,0.95,1.39*06
$GPGSV,4,1,15,01,03,010,,02,08,151,30,03,06,037,,06,28,114,24*78
$GPGSV,4,2,15,12,58,258,27,14,27,314,26,15,04,205,,17,36,058,31*76
$GPGSV,4,3,15,19,59,088,35,22,09,006,,24,64,194,33,25,22,265,23*78
$GPGSV,4,4,15,28,01,085,,32,26,315,29,33,12,230,*40
$GSENSORD,-0.060,0.060,0.060
$GPRMC,141934.00,A,6001.23428,N,03014.04389,E,22.567,149.33,110416,,,A*57
$GPVTG,149.33,T,,M,22.567,N,41.795,K,A*3B
$GPGGA,141934.00,6001.23428,N,03014.04389,E,1,09,0.95,0.6,M,15.9,M,,*50
$GPGSA,A,3,24,19,12,17,14,06,32,25,02,,,,1.68,0.95,1.39*06
$GPGSV,4,1,15,01,03,010,,02,08,151,30,03,06,037,,06,28,114,23*7F
$GPGSV,4,2,15,12,58,258,27,14,27,314,25,15,04,205,,17,36,058,31*75
$GPGSV,4,3,15,19,59,088,35,22,09,006,,24,64,194,32,25,22,265,23*79
$GPGSV,4,4,15,28,01,085,,32,26,315,28,33,12,230,*41
$GSENSORD,-0.120,-0.120,0.120
$GPRMC,141935.00,A,6001.22887,N,03014.05025,E,22.574,149.56,110416,,,A*5B
$GPVTG,149.56,T,,M,22.574,N,41.807,K,A*3E
$GPGGA,141935.00,6001.22887,N,03014.05025,E,1,09,0.95,0.6,M,15.9,M,,*5D
$GPGSA,A,3,24,19,12,17,14,06,32,25,02,,,,1.68,0.95,1.39*06
$GPGSV,4,1,15,01,03,010,,02,08,151,32,03,06,037,,06,28,114,22*7C
$GPGSV,4,2,15,12,58,258,26,14,27,314,25,15,04,205,,17,36,058,24*70
$GPGSV,4,3,15,19,59,088,35,22,09,006,,24,64,194,32,25,22,265,23*79
$GPGSV,4,4,15,28,01,085,,32,26,315,28,33,12,230,*41
$GSENSORD,-0.120,0.250,0.120
$GPRMC,141936.00,A,6001.22339,N,03014.05657,E,22.706,149.22,110416,,,A*51
$GPVTG,149.22,T,,M,22.706,N,42.052,K,A*31
$GPGGA,141936.00,6001.22339,N,03014.05657,E,1,09,0.95,0.6,M,15.9,M,,*53
$GPGSA,A,3,24,19,12,17,14,06,32,25,02,,,,1.68,0.95,1.39*06
$GPGSV,4,1,15,01,03,010,,02,08,151,32,03,06,037,,06,28,114,24*7A
$GPGSV,4,2,15,12,58,258,26,14,27,314,26,15,04,205,,17,36,058,24*73
$GPGSV,4,3,15,19,59,088,35,22,09,006,,24,64,194,33,25,22,265,21*7A
$GPGSV,4,4,15,28,01,085,,32,26,315,29,33,12,230,*40
$GSENSORD,-0.060,-0.120,0.120
$GPRMC,141937.00,A,6001.21796,N,03014.06293,E,22.659,149.13,110416,,,A*54
$GPVTG,149.13,T,,M,22.659,N,41.965,K,A*36
$GPGGA,141937.00,6001.21796,N,03014.06293,E,1,09,0.95,0.6,M,15.9,M,,*5F
$GPGSA,A,3,24,19,12,17,14,06,32,25,02,,,,1.68,0.95,1.39*06
$GPGSV,4,1,15,01,03,010,,02,08,151,31,03,06,037,,06,28,114,24*79
$GPGSV,4,2,15,12,58,258,25,14,27,314,25,15,04,205,,17,36,058,23*74
$GPGSV,4,3,15,19,59,088,36,22,09,006,,24,64,194,32,25,22,265,18*72
$GPGSV,4,4,15,28,01,085,,32,26,315,29,33,12,230,*40
$GSENSORD,0.120,-0.060,0.120
$GPRMC,141938.00,A,6001.21253,N,03014.06913,E,22.543,150.06,110416,,,A*50
$GPVTG,150.06,T,,M,22.543,N,41.750,K,A*3A
$GPGGA,141938.00,6001.21253,N,03014.06913,E,1,09,0.95,0.6,M,15.9,M,,*5F
$GPGSA,A,3,24,19,12,17,14,06,32,25,02,,,,1.68,0.95,1.39*06
$GPGSV,4,1,15,01,03,010,,02,08,151,31,03,06,037,,06,28,114,23*7E
$GPGSV,4,2,15,12,58,258,26,14,27,314,26,15,04,205,,17,36,058,21*76
$GPGSV,4,3,15,19,59,088,36,22,09,006,,24,64,194,32,25,22,265,16*7C
$GPGSV,4,4,15,28,01,085,,32,26,315,28,33,12,230,*41
$GSENSORD,-0.120,-0.120,0.120
$GPRMC,141939.00,A,6001.20712,N,03014.07536,E,22.551,149.57,110416,,,A*55
$GPVTG,149.57,T,,M,22.551,N,41.764,K,A*32
$GPGGA,141939.00,6001.20712,N,03014.07536,E,1,09,0.95,0.6,M,15.9,M,,*55
$GPGSA,A,3,24,19,12,17,14,06,32,25,02,,,,1.68,0.95,1.39*06
$GPGSV,4,1,15,01,03,010,,02,08,151,30,03,06,037,,06,28,114,23*7F
$GPGSV,4,2,15,12,58,258,26,14,27,314,25,15,04,205,,17,36,058,21*75
$GPGSV,4,3,15,19,59,088,36,22,09,006,,24,64,194,32,25,22,265,15*7F
$GPGSV,4,4,15,28,01,085,,32,26,315,28,33,12,230,*41
$GSENSORD,-0.120,-0.120,0.120
$GPRMC,141940.00,A,6001.20174,N,03014.08153,E,22.252,149.45,110416,,,A*52
$GPVTG,149.45,T,,M,22.252,N,41.210,K,A*33
$GPGGA,141940.00,6001.20174,N,03014.08153,E,1,09,1.06,0.7,M,15.9,M,,*5F
$GPGSA,A,3,24,19,12,17,14,06,32,25,02,,,,1.79,1.06,1.45*06
$GPGSV,4,1,15,01,03,010,,02,08,151,35,03,06,037,,06,28,114,23*7A
$GPGSV,4,2,15,12,58,258,24,14,27,314,25,15,04,205,,17,36,058,23*75
$GPGSV,4,3,15,19,59,088,36,22,09,006,,24,64,194,33,25,22,265,15*7E
$GPGSV,4,4,15,28,01,085,,32,26,315,28,33,12,230,*41
$GSENSORD,0.120,0.060,0.120
$GPRMC,141941.00,A,6001.19643,N,03014.08750,E,21.905,149.59,110416,,,A*58
$GPVTG,149.59,T,,M,21.905,N,40.568,K,A*3D
$GPGGA,141941.00,6001.19643,N,03014.08750,E,1,08,1.06,0.7,M,15.9,M,,*53
$GPGSA,A,3,24,19,12,17,14,06,32,02,,,,,1.79,1.06,1.45*01
$GPGSV,4,1,15,01,03,010,,02,08,151,30,03,06,037,,06,28,114,38*75
$GPGSV,4,2,15,12,58,258,25,14,27,314,25,15,04,205,,17,36,058,22*75
$GPGSV,4,3,15,19,59,088,36,22,09,006,19,24,64,194,33,25,22,265,15*76
$GPGSV,4,4,15,28,01,085,,32,26,315,28,33,12,230,*41
$GSENSORD,0.060,-0.120,0.060
$GPRMC,141942.00,A,6001.19122,N,03014.09359,E,21.654,149.02,110416,,,A*52
$GPVTG,149.02,T,,M,21.654,N,40.103,K,A*31
$GPGGA,141942.00,6001.19122,N,03014.09359,E,1,08,1.06,0.7,M,15.9,M,,*5C
$GPGSA,A,3,24,19,12,17,14,06,32,02,,,,,1.79,1.06,1.45*01
$GPGSV,4,1,15,01,03,010,,02,08,151,33,03,06,037,,06,28,114,39*77
$GPGSV,4,2,15,12,58,258,25,14,27,314,26,15,04,205,,17,36,058,19*7E
$GPGSV,4,3,15,19,59,088,35,22,09,006,20,24,64,194,33,25,22,265,15*7F
$GPGSV,4,4,15,28,01,085,,32,26,315,28,33,12,230,*41
$GSENSORD,-0.060,-0.060,0.060
$GPRMC,141943.00,A,6001.18605,N,03014.09965,E,21.545,149.59,110416,,,A*58
$GPVTG,149.59,T,,M,21.545,N,39.902,K,A*3B
$GPGGA,141943.00,6001.18605,N,03014.09965,E,1,08,1.38,0.7,M,15.9,M,,*56
$GPGSA,A,3,24,19,12,17,14,06,32,02,,,,,2.00,1.38,1.45*01
$GPGSV,4,1,15,01,03,010,,02,08,151,33,03,06,037,,06,28,114,39*77
$GPGSV,4,2,15,12,58,258,25,14,27,314,26,15,04,205,,17,36,058,28*7C
$GPGSV,4,3,15,19,59,088,36,22,09,006,20,24,64,194,32,25,22,265,15*7D
$GPGSV,4,4,15,28,01,085,,32,26,315,28,33,12,230,*41
$GSENSORD,0.060,-0.060,0.120
$GPRMC,141944.00,A,6001.18072,N,03014.10596,E,22.442,149.77,110416,,,A*58
$GPVTG,149.77,T,,M,22.442,N,41.563,K,A*36
$GPGGA,141944.00,6001.18072,N,03014.10596,E,1,08,1.05,0.6,M,15.9,M,,*50
$GPGSA,A,3,24,19,12,17,14,06,32,02,,,,,1.79,1.05,1.45*02
$GPGSV,4,1,15,01,03,010,,02,08,151,35,03,06,037,,06,28,114,38*70
$GPGSV,4,2,15,12,58,258,26,14,27,314,26,15,04,205,,17,36,058,20*77
$GPGSV,4,3,15,19,59,088,36,22,09,006,20,24,64,194,34,25,22,265,15*7B
$GPGSV,4,4,15,28,01,085,,32,26,315,28,33,12,230,*41
$GSENSORD,0.060,-0.120,0.120
$GPRMC,141945.00,A,6001.17516,N,03014.11241,E,23.210,149.84,110416,,,A*51
$GPVTG,149.84,T,,M,23.210,N,42.985,K,A*3D
$GPGGA,141945.00,6001.17516,N,03014.11241,E,1,08,1.05,0.5,M,15.9,M,,*56
$GPGSA,A,3,24,19,12,17,14,06,32,02,,,,,1.79,1.05,1.45*02
$GPGSV,4,1,15,01,03,010,,02,08,151,32,03,06,036,,06,28,114,40*79
$GPGSV,4,2,15,12,58,258,27,14,27,314,25,15,04,205,,17,36,058,23*76
$GPGSV,4,3,15,19,59,088,36,22,09,006,17,24,64,194,34,25,22,265,08*73
$GPGSV,4,4,15,28,01,085,,32,26,315,28,33,12,230,*41
$GSENSORD,0.060,-0.180,0.120
$GPRMC,141946.00,A,6001.16953,N,03014.11881,E,23.213,149.68,110416,,,A*59
$GPVTG,149.68,T,,M,23.213,N,42.991,K,A*39
$GPGGA,141946.00,6001.16953,N,03014.11881,E,1,08,1.05,0.4,M,15.9,M,,*5E
$GPGSA,A,3,24,19,12,17,14,06,32,02,,,,,1.79,1.05,1.45*02
$GPGSV,4,1,15,01,03,010,,02,08,151,32,03,06,036,,06,28,114,38*76
$GPGSV,4,2,15,12,58,258,27,14,27,314,26,15,04,205,,17,36,058,23*75
$GPGSV,4,3,15,19,59,088,36,22,09,006,15,24,64,194,33,25,22,265,08*76
$GPGSV,4,4,15,28,01,085,,32,26,315,28,33,12,230,*41
$GSENSORD,-0.120,-0.060,-0.060
$GPRMC,141947.00,A,6001.16392,N,03014.12512,E,22.945,149.93,110416,,,A*56
$GPVTG,149.93,T,,M,22.945,N,42.494,K,A*3C
$GPGGA,141947.00,6001.16392,N,03014.12512,E,1,08,1.05,0.3,M,15.9,M,,*5B
$GPGSA,A,3,24,19,12,17,14,06,32,02,,,,,1.79,1.05,1.45*02
$GPGSV,4,1,15,01,03,010,,02,08,151,31,03,06,036,,06,28,114,35*78
$GPGSV,4,2,15,12,58,258,26,14,27,314,26,15,04,205,,17,36,058,31*77
$GPGSV,4,3,15,19,59,088,36,22,09,006,14,24,64,194,33,25,22,265,08*77
$GPGSV,4,4,15,28,01,085,,32,26,315,28,33,12,230,*41
$GSENSORD,0.120,-0.120,0.060
$GPRMC,141948.00,A,6001.15844,N,03014.13159,E,22.931,149.22,110416,,,A*59
$GPVTG,149.22,T,,M,22.931,N,42.469,K,A*37
$GPGGA,141948.00,6001.15844,N,03014.13159,E,1,08,1.05,0.3,M,15.9,M,,*5D
$GPGSA,A,3,24,19,12,17,14,06,32,02,,,,,1.79,1.05,1.45*02
$GPGSV,4,1,15,01,03,010,,02,08,151,32,03,06,036,,06,28,114,25*7A
$GPGSV,4,2,15,12,58,258,25,14,27,314,26,15,04,205,,17,36,058,26*72
$GPGSV,4,3,15,19,59,088,35,22,09,006,14,24,64,194,33,25,22,265,08*74
$GPGSV,4,4,15,28,01,085,,32,26,315,28,33,12,230,*41
$GSENSORD,0.060,-0.060,0.120
$GPRMC,141949.00,A,6001.15299,N,03014.13801,E,22.758,149.46,110416,,,A*55
$GPVTG,149.46,T,,M,22.758,N,42.148,K,A*32
$GPGGA,141949.00,6001.15299,N,03014.13801,E,1,08,1.05,0.3,M,15.9,M,,*52
$GPGSA,A,3,24,19,12,17,14,06,32,02,,,,,1.79,1.05,1.45*02
$GPGSV,4,1,15,01,03,010,,02,08,151,28,03,06,036,,06,28,114,24*70
$GPGSV,4,2,15,12,58,258,24,14,27,314,26,15,04,205,,17,36,058,31*75
$GPGSV,4,3,15,19,59,088,36,22,09,006,14,24,64,194,33,25,22,265,08*77
$GPGSV,4,4,15,28,01,085,,32,26,315,28,33,12,230,*41
$GSENSORD,-0.060,0.060,0.180
$GPRMC,141950.00,A,6001.14763,N,03014.14432,E,22.257,149.39,110416,,,A*55
$GPVTG,149.39,T,,M,22.257,N,41.219,K,A*34
$GPGGA,141950.00,6001.14763,N,03014.14432,E,1,08,1.05,0.3,M,15.9,M,,*50
$GPGSA,A,3,24,19,12,17,14,06,32,02,,,,,1.79,1.05,1.45*02
$GPGSV,4,1,15,01,03,010,,02,08,151,33,03,06,036,,06,28,114,24*7A
$GPGSV,4,2,15,12,58,258,25,14,27,314,26,15,04,205,,17,36,058,32*77
$GPGSV,4,3,15,19,59,088,36,22,09,006,14,24,64,194,33,25,22,265,*7F
$GPGSV,4,4,15,28,01,085,,32,26,315,28,33,12,230,*41
$GSENSORD,-0.060,0.060,0.060
$GPRMC,141951.00,A,6001.14235,N,03014.15056,E,22.077,149.53,110416,,,A*59
$GPVTG,149.53,T,,M,22.077,N,40.887,K,A*34
$GPGGA,141951.00,6001.14235,N,03014.15056,E,1,08,1.05,0.3,M,15.9,M,,*50
$GPGSA,A,3,24,19,12,17,14,06,32,02,,,,,1.79,1.05,1.45*02
$GPGSV,4,1,15,01,03,010,,02,08,151,33,03,06,036,,06,28,114,23*7D
$GPGSV,4,2,15,12,58,258,26,14,27,314,26,15,04,205,,17,36,058,32*74
$GPGSV,4,3,15,19,59,088,36,22,09,006,12,24,64,194,33,25,22,265,*79
$GPGSV,4,4,15,28,01,085,,32,26,315,28,33,12,230,*41
$GSENSORD,0.060,-0.120,0.120
$GPRMC,141952.00,A,6001.13715,N,03014.15682,E,21.890,149.20,110416,,,A*53
$GPVTG,149.20,T,,M,21.890,N,40.541,K,A*35
$GPGGA,141952.00,6001.13715,N,03014.15682,E,1,08,1.05,0.2,M,15.9,M,,*5D
$GPGSA,A,3,24,19,12,17,14,06,32,02,,,,,1.79,1.05,1.45*02
$GPGSV,4,1,15,01,03,010,,02,09,151,34,03,06,036,,06,28,114,22*7A
$GPGSV,4,2,15,12,58,258,26,14,27,314,26,15,04,205,,17,36,058,32*74
$GPGSV,4,3,15,19,59,088,36,22,09,006,12,24,64,194,33,25,22,265,*79
$GPGSV,4,4,15,28,01,085,,32,26,315,28,33,12,230,*41
$GSENSORD,0.120,-0.060,0.060
$GPRMC,141953.00,A,6001.13200,N,03014.16305,E,21.703,149.23,110416,,,A*5C
$GPVTG,149.23,T,,M,21.703,N,40.194,K,A*3F
$GPGGA,141953.00,6001.13200,N,03014.16305,E,1,08,1.05,0.2,M,15.9,M,,*54
$GPGSA,A,3,24,19,12,17,14,06,32,02,,,,,1.79,1.05,1.45*02
$GPGSV,4,1,15,01,03,010,,02,09,151,32,03,06,036,,06,28,114,21*7F
$GPGSV,4,2,15,12,59,258,26,14,27,314,26,15,04,205,,17,36,058,32*75
$GPGSV,4,3,15,19,59,088,35,22,09,006,12,24,64,194,33,25,22,265,*7A
$GPGSV,4,4,15,28,01,085,,32,26,315,28,33,12,230,*41
$GSENSORD,0.060,-0.060,0.060
$GPRMC,141954.00,A,6001.12672,N,03014.16928,E,22.172,149.36,110416,,,A*59
$GPVTG,149.36,T,,M,22.172,N,41.062,K,A*31
$GPGGA,141954.00,6001.12672,N,03014.16928,E,1,08,1.05,0.2,M,15.9,M,,*56
$GPGSA,A,3,24,19,12,17,14,06,32,02,,,,,1.79,1.05,1.45*02
$GPGSV,4,1,15,01,03,010,,02,09,151,31,03,06,036,,06,28,114,21*7C
$GPGSV,4,2,15,12,59,258,27,14,27,314,26,15,04,205,04,17,36,058,26*75
$GPGSV,4,3,15,19,59,088,36,22,09,006,12,24,64,194,33,25,22,265,*79
$GPGSV,4,4,15,28,01,085,,32,26,315,28,33,12,230,*41
$GSENSORD,0.060,-0.060,0.120
$GPRMC,141955.00,A,6001.12140,N,03014.17555,E,22.247,149.44,110416,,,A*59
$GPVTG,149.44,T,,M,22.247,N,41.201,K,A*36
$GPGGA,141955.00,6001.12140,N,03014.17555,E,1,08,1.05,0.1,M,15.9,M,,*55
$GPGSA,A,3,24,19,12,17,14,06,32,02,,,,,1.79,1.05,1.45*02
$GPGSV,4,1,15,01,03,010,,02,09,151,34,03,06,036,,06,28,114,21*79
$GPGSV,4,2,15,12,59,258,26,14,27,314,26,15,04,205,,17,36,058,24*72
$GPGSV,4,3,15,19,59,088,36,22,09,006,12,24,64,194,33,25,22,265,*79
$GPGSV,4,4,15,28,01,085,,32,26,315,28,33,12,230,*41
$GSENSORD,0.120,-0.060,0.180
$GPRMC,141956.00,A,6001.11604,N,03014.18174,E,22.229,149.81,110416,,,A*57
$GPVTG,149.81,T,,M,22.229,N,41.169,K,A*3A
$GPGGA,141956.00,6001.11604,N,03014.18174,E,1,08,1.05,-0.1,M,15.9,M,,*77
$GPGSA,A,3,24,19,12,17,14,06,32,02,,,,,1.79,1.05,1.45*02
$GPGSV,4,1,15,01,03,010,,02,09,151,34,03,06,036,,06,28,114,21*79
$GPGSV,4,2,15,12,59,258,27,14,27,314,26,15,04,205,,17,36,058,21*76
$GPGSV,4,3,15,19,59,088,36,22,09,006,12,24,64,194,33,25,22,265,*79
$GPGSV,4,4,15,28,01,085,,32,26,315,27,33,12,230,*4E
$GSENSORD,-0.120,-0.120,0.180
$GPRMC,141957.00,A,6001.11073,N,03014.18783,E,21.894,149.79,110416,,,A*56
$GPVTG,149.79,T,,M,21.894,N,40.549,K,A*35
$GPGGA,141957.00,6001.11073,N,03014.18783,E,1,08,1.05,0.0,M,15.9,M,,*52
$GPGSA,A,3,24,19,12,17,14,06,32,02,,,,,1.79,1.05,1.45*02
$GPGSV,4,1,15,01,03,010,,02,09,151,34,03,06,036,,06,28,114,22*7A
$GPGSV,4,2,15,12,59,258,28,14,27,314,26,15,04,205,,17,36,058,22*7A
$GPGSV,4,3,15,19,59,088,36,22,09,006,10,24,64,194,33,25,22,265,*7B
$GPGSV,4,4,15,28,01,085,,32,26,315,28,33,12,230,*41
$GSENSORD,0.060,-0.120,0.120
$GPRMC,141958.00,A,6001.10551,N,03014.19376,E,21.393,149.29,110416,,,A*5B
$GPVTG,149.29,T,,M,21.393,N,39.619,K,A*34
$GPGGA,141958.00,6001.10551,N,03014.19376,E,1,08,1.05,0.2,M,15.9,M,,*54
$GPGSA,A,3,24,19,12,17,14,06,32,02,,,,,1.79,1.05,1.45*02
$GPGSV,4,1,15,01,03,010,,02,09,151,36,03,06,036,,06,28,114,24*7E
$GPGSV,4,2,15,12,59,258,27,14,27,314,25,15,04,205,,17,36,058,24*70
$GPGSV,4,3,15,19,59,088,36,22,09,006,10,24,64,194,33,25,22,265,*7B
$GPGSV,4,4,15,28,01,085,,32,26,315,28,33,12,230,*41
$GSENSORD,-0.120,-0.060,0.060
$GPRMC,141959.00,A,6001.10049,N,03014.19972,E,21.076,149.52,110416,,,A*5C
$GPVTG,149.52,T,,M,21.076,N,39.032,K,A*3F
$GPGGA,141959.00,6001.10049,N,03014.19972,E,1,08,1.38,0.2,M,15.9,M,,*59
$GPGSV,4,1,15,01,03,010,,02,09,151,33,03,06,036,,06,28,114,25*7A
$GPGSV,4,2,15,12,59,258,27,14,27,314,25,15,04,205,,17,36,058,20*74
$GPGSV,4,3,15,19,59,088,36,22,09,006,10,24,64,194,33,25,22,265,*7B
$GPGSV,4,4,15,28,01,085,,32,26,315,28,33,12,230,*41
$GSENSORD,-0.120,-0.120,-0.120
$GPRMC,142000.00,A,6001.09553,N,03014.20556,E,20.725,149.57,110416,,,A*59
$GPVTG,149.57,T,,M,20.725,N,38.383,K,A*32
$GPGGA,142000.00,6001.09553,N,03014.20556,E,1,08,1.38,0.1,M,15.9,M,,*5A
$GPGSV,4,1,15,01,03,010,,02,09,151,34,03,06,036,,06,28,114,27*7F
$GPGSV,4,2,15,12,59,258,26,14,27,314,25,15,04,205,,17,36,058,18*7E
$GPGSV,4,3,15,19,59,087,36,22,09,006,10,24,64,194,32,25,22,265,14*70
$GPGSV,4,4,15,28,01,085,,32,26,315,28,33,12,230,*41
$GSENSORD,-0.120,-0.060,0.120
$GPRMC,142001.00,A,6001.09068,N,03014.21121,E,20.019,149.08,110416,,,A*52
$GPVTG,149.08,T,,M,20.019,N,37.075,K,A*35
$GPGGA,142001.00,6001.09068,N,03014.21121,E,1,08,1.05,0.1,M,15.9,M,,*5D
$GPGSA,A,3,24,19,12,17,14,06,32,02,,,,,1.79,1.05,1.45*02
$GPGSV,4,1,15,01,03,010,,02,09,151,34,03,06,036,,06,28,114,39*70
$GPGSV,4,2,15,12,59,258,27,14,27,314,25,15,04,205,,17,36,058,19*7E
$GPGSV,4,3,15,19,59,087,36,22,09,006,10,24,64,194,32,25,22,265,17*73
$GPGSV,4,4,15,28,01,085,,32,26,315,28,33,12,230,*41
$GSENSORD,-0.180,0.060,0.060
$GPRMC,142002.00,A,6001.08600,N,03014.21670,E,19.203,149.30,110416,,,A*53
$GPVTG,149.30,T,,M,19.203,N,35.564,K,A*3A
$GPGGA,142002.00,6001.08600,N,03014.21670,E,1,08,1.05,0.1,M,15.9,M,,*54
$GPGSA,A,3,24,19,12,17,14,06,32,02,,,,,1.79,1.05,1.45*02
$GPGSV,4,1,15,01,03,010,,02,09,151,33,03,06,036,,06,28,114,39*77
$GPGSV,4,2,15,12,59,258,27,14,27,314,26,15,04,205,15,17,36,058,20*73
$GPGSV,4,3,15,19,59,087,36,22,09,006,,24,64,194,33,25,22,265,18*7C
$GPGSV,4,4,15,28,01,085,,32,26,315,28,33,12,230,*41
$GSENSORD,0.060,0.060,0.250
$GPRMC,142003.00,A,6001.08148,N,03014.22202,E,18.508,149.78,110416,,,A*5A
$GPVTG,149.78,T,,M,18.508,N,34.277,K,A*3F
$GPGGA,142003.00,6001.08148,N,03014.22202,E,1,08,1.05,0.0,M,15.9,M,,*5D
$GPGSA,A,3,24,19,12,17,14,06,32,02,,,,,1.79,1.05,1.45*02
$GPGSV,4,1,15,01,03,010,,02,09,151,34,03,06,036,,06,28,114,39*70
$GPGSV,4,2,15,12,59,258,27,14,27,314,26,15,04,205,14,17,36,058,21*73
$GPGSV,4,3,15,19,59,087,36,22,09,005,,24,64,194,33,25,22,265,17*70
$GPGSV,4,4,15,28,01,085,,32,26,315,28,33,12,230,*41
$GSENSORD,-0.120,-0.120,0.060
$GPRMC,142004.00,A,6001.07712,N,03014.22698,E,17.690,149.58,110416,,,A*53
$GPVTG,149.58,T,,M,17.690,N,32.761,K,A*34
$GPGGA,142004.00,6001.07712,N,03014.22698,E,1,09,1.05,0.0,M,15.9,M,,*5A
$GPGSA,A,3,24,19,12,17,14,06,32,25,02,,,,1.80,1.05,1.45*03
$GPGSV,4,1,15,01,03,010,,02,09,151,35,03,06,036,,06,28,114,39*71
$GPGSV,4,2,15,12,59,258,28,14,27,314,26,15,04,205,13,17,36,058,23*79
$GPGSV,4,3,15,19,59,087,36,22,09,005,11,24,64,194,33,25,22,265,16*71
$GPGSV,4,4,15,28,01,085,,32,26,315,27,33,12,230,*4E
$GSENSORD,-0.180,-0.060,-0.120
$GPRMC,142005.00,A,6001.07314,N,03014.23144,E,15.798,149.69,110416,,,A*5E
$GPVTG,149.69,T,,M,15.798,N,29.259,K,A*39
$GPGGA,142005.00,6001.07314,N,03014.23144,E,1,09,1.05,0.2,M,15.9,M,,*5C
$GPGSA,A,3,24,19,12,17,14,06,32,25,02,,,,1.80,1.05,1.45*03
$GPGSV,4,1,15,01,03,010,,02,09,151,31,03,06,036,,06,28,114,39*75
$GPGSV,4,2,15,12,59,258,28,14,27,314,25,15,04,205,11,17,36,058,23*78
$GPGSV,4,3,15,19,59,087,37,22,09,005,10,24,64,194,32,25,22,265,16*70
$GPGSV,4,4,15,28,01,085,,32,26,315,28,33,12,230,*41
$GSENSORD,-0.180,-0.120,0.060
$GPRMC,142006.00,A,6001.06962,N,03014.23550,E,14.076,150.03,110416,,,A*54
$GPVTG,150.03,T,,M,14.076,N,26.068,K,A*34
$GPGGA,142006.00,6001.06962,N,03014.23550,E,1,09,1.05,0.1,M,15.9,M,,*57
$GPGSA,A,3,24,19,12,17,14,06,32,25,02,,,,1.80,1.05,1.45*03
$GPGSV,4,1,15,01,03,010,,02,09,151,34,03,06,036,,06,28,114,39*70
$GPGSV,4,2,15,12,59,258,29,14,27,314,25,15,04,205,10,17,36,058,23*78
$GPGSV,4,3,15,19,59,087,36,22,09,005,10,24,64,194,33,25,22,265,14*72
$GPGSV,4,4,15,28,01,085,,32,26,315,28,33,12,230,*41
$GSENSORD,-0.120,-0.060,-0.060
$GPRMC,142007.00,A,6001.06648,N,03014.23912,E,12.589,150.24,110416,,,A*5E
$GPVTG,150.24,T,,M,12.589,N,23.314,K,A*3F
$GPGGA,142007.00,6001.06648,N,03014.23912,E,1,09,1.05,0.2,M,15.9,M,,*58
$GPGSA,A,3,24,19,12,17,14,06,32,25,02,,,,1.80,1.05,1.45*03
$GPGSV,4,1,15,01,03,010,,02,09,151,34,03,06,036,,06,28,114,38*71
$GPGSV,4,2,15,12,59,258,29,14,27,314,25,15,04,205,10,17,36,058,21*7A
$GPGSV,4,3,15,19,59,087,36,22,09,005,10,24,64,194,33,25,22,265,16*70
$GPGSV,4,4,15,28,01,085,,32,26,315,27,33,12,230,*4E
$GSENSORD,-0.180,-0.060,0.120
$GPRMC,142008.00,A,6001.06366,N,03014.24232,E,11.185,150.04,110416,,,A*5F
$GPVTG,150.04,T,,M,11.185,N,20.715,K,A*30
$GPGGA,142008.00,6001.06366,N,03014.24232,E,1,09,1.05,0.2,M,15.9,M,,*50
$GPGSA,A,3,24,19,12,17,14,06,32,25,02,,,,1.80,1.05,1.45*03
$GPGSV,4,1,15,01,03,010,,02,09,151,36,03,06,036,,06,28,114,38*73
$GPGSV,4,2,15,12,59,258,30,14,27,314,25,15,04,205,10,17,36,058,29*7A
$GPGSV,4,3,15,19,59,087,36,22,09,005,08,24,64,194,33,25,22,265,15*7A
$GPGSV,4,4,15,28,01,085,,32,26,315,26,33,12,230,*4F
$GSENSORD,-0.120,0.060,0.060
$GPRMC,142009.00,A,6001.06141,N,03014.24509,E,8.817,149.27,110416,,,A*65
$GPVTG,149.27,T,,M,8.817,N,16.329,K,A*0D
$GPGGA,142009.00,6001.06141,N,03014.24509,E,1,09,1.05,0.0,M,15.9,M,,*5B
$GPGSA,A,3,24,19,12,17,14,06,32,25,02,,,,1.80,1.05,1.45*03
$GPGSV,4,1,15,01,03,010,,02,09,151,36,03,06,036,,06,28,114,39*72
$GPGSV,4,2,15,12,59,258,30,14,27,314,24,15,04,205,,17,36,058,31*73
$GPGSV,4,3,15,19,59,087,36,22,09,005,08,24,64,194,32,25,22,265,14*7A
$GPGSV,4,4,15,28,01,085,,32,26,315,27,33,12,230,*4E
$GSENSORD,-0.250,-0.120,0.120
$GPRMC,142010.00,A,6001.05989,N,03014.24705,E,5.828,149.16,110416,,,A*6F
$GPVTG,149.16,T,,M,5.828,N,10.793,K,A*0D
$GPGGA,142010.00,6001.05989,N,03014.24705,E,1,09,1.05,0.0,M,15.9,M,,*52
$GPGSA,A,3,24,19,12,17,14,06,32,25,02,,,,1.80,1.05,1.45*03
$GPGSV,4,1,15,01,03,010,,02,09,151,38,03,06,036,,06,28,114,39*7C
$GPGSV,4,2,15,12,59,258,29,14,27,314,24,15,04,205,,17,36,058,32*78
$GPGSV,4,3,15,19,59,087,36,22,09,005,08,24,64,194,32,25,22,265,13*7D
$GPGSV,4,4,15,28,01,085,,32,26,315,26,33,12,230,*4F
$GSENSORD,-0.250,-0.060,0.060
$GPRMC,142011.00,A,6001.05913,N,03014.24804,E,2.207,149.46,110416,,,A*66
$GPVTG,149.46,T,,M,2.207,N,4.087,K,A*3F
$GPGGA,142011.00,6001.05913,N,03014.24804,E,1,09,1.05,0.1,M,15.9,M,,*5F
$GPGSA,A,3,24,19,12,17,14,06,32,25,02,,,,1.80,1.05,1.45*03
$GPGSV,4,1,15,01,03,010,,02,09,151,38,03,06,036,,06,28,114,39*7C
$GPGSV,4,2,15,12,59,258,29,14,27,314,24,15,04,205,,17,36,058,31*7B
$GPGSV,4,3,15,19,59,087,36,22,09,005,08,24,64,194,32,25,22,265,15*7B
$GPGSV,4,4,15,28,01,085,,32,26,315,26,33,12,230,*4F
$GSENSORD,0.060,-0.060,0.060
$GPRMC,142012.00,A,6001.05900,N,03014.24826,E,0.047,,110416,,,A*73
$GPVTG,,T,,M,0.047,N,0.087,K,A*2F
$GPGGA,142012.00,6001.05900,N,03014.24826,E,1,09,1.05,0.1,M,15.9,M,,*5E
$GPGSA,A,3,24,19,12,17,14,06,32,25,02,,,,1.80,1.05,1.45*03
$GPGSV,4,1,15,01,03,010,,02,09,151,37,03,06,036,,06,28,114,40*7D
$GPGSV,4,2,15,12,59,258,29,14,27,314,26,15,04,205,,17,36,058,31*79
$GPGSV,4,3,15,19,59,087,35,22,09,005,08,24,64,194,32,25,22,265,14*79
$GPGSV,4,4,15,28,01,085,,32,26,315,26,33,12,230,*4F
$GSENSORD,0.120,-0.060,0.060
$GPRMC,142013.00,A,6001.05901,N,03014.24838,E,0.433,,110416,,,A*7B
$GPVTG,,T,,M,0.433,N,0.802,K,A*2D
$GPGGA,142013.00,6001.05901,N,03014.24838,E,1,09,1.05,0.0,M,15.9,M,,*50
$GPGSA,A,3,24,19,12,17,14,06,32,25,02,,,,1.80,1.05,1.45*03
$GPGSV,4,1,15,01,03,010,,02,09,151,36,03,06,036,,06,28,114,40*7C
$GPGSV,4,2,15,12,59,258,29,14,27,314,27,15,04,205,,17,36,058,31*78
$GPGSV,4,3,15,19,59,087,35,22,09,005,08,24,64,194,35,25,22,265,13*79
$GPGSV,4,4,15,28,01,085,,32,26,315,27,33,12,230,*4E
$GSENSORD,0.120,-0.060,0.060
$GPRMC,142014.00,A,6001.05859,N,03014.24891,E,2.583,149.03,110416,,,A*6A
$GPVTG,149.03,T,,M,2.583,N,4.783,K,A*36
$GPGGA,142014.00,6001.05859,N,03014.24891,E,1,09,1.05,0.1,M,15.9,M,,*59
$GPGSV,4,1,15,01,03,010,,02,09,151,34,03,06,036,,06,28,114,40*7E
$GPGSV,4,2,15,12,59,258,29,14,27,314,26,15,04,205,,17,36,058,31*79
$GPGSV,4,3,15,19,59,087,35,22,09,005,,24,64,194,35,25,22,265,14*76
$GPGSV,4,4,15,28,01,085,,32,26,315,27,33,12,230,*4E
$GSENSORD,0.180,0.060,0.060
$GPRMC,142015.00,A,6001.05753,N,03014.25026,E,5.324,148.69,110416,,,A*6A
$GPVTG,148.69,T,,M,5.324,N,9.860,K,A*38
$GPGGA,142015.00,6001.05753,N,03014.25026,E,1,09,1.05,0.1,M,15.9,M,,*58
$GPGSV,4,1,15,01,03,010,,02,09,151,34,03,06,036,,06,28,114,40*7E
$GPGSV,4,2,15,12,59,258,29,14,27,314,26,15,04,205,,17,36,058,31*79
$GPGSV,4,3,15,19,59,087,35,22,09,005,,24,64,194,34,25,22,265,15*76
$GPGSV,4,4,15,28,01,085,,32,26,315,27,33,12,230,*4E
$GSENSORD,0.120,0.060,0.120
$GPRMC,142016.00,A,6001.05605,N,03014.25203,E,6.641,149.60,110416,,,A*63
$GPVTG,149.60,T,,M,6.641,N,12.300,K,A*02
$GPGGA,142016.00,6001.05605,N,03014.25203,E,1,09,1.05,0.2,M,15.9,M,,*5F
$GPGSV,4,1,15,01,03,010,,02,09,151,34,03,06,036,,06,28,114,40*7E
$GPGSV,4,2,15,12,59,258,28,14,27,314,27,15,04,205,,17,36,058,31*79
$GPGSV,4,3,15,19,59,087,35,22,09,005,,24,64,194,34,25,22,265,15*76
$GPGSV,4,4,15,28,01,085,,32,26,315,28,33,12,230,*41
$GSENSORD,-0.120,-0.120,0.120
$GPRMC,142017.00,A,6001.05447,N,03014.25396,E,6.797,149.35,110416,,,A*61
$GPVTG,149.35,T,,M,6.797,N,12.588,K,A*0E
$GPGGA,142017.00,6001.05447,N,03014.25396,E,1,09,1.05,0.1,M,15.9,M,,*54
$GPGSV,4,1,15,01,03,010,,02,09,151,35,03,06,036,,06,28,114,39*71
$GPGSV,4,2,15,12,59,258,29,14,27,314,26,15,04,205,,17,36,058,31*79
$GPGSV,4,3,15,19,59,087,35,22,09,005,19,24,64,194,34,25,22,265,16*7D
$GPGSV,4,4,15,28,01,085,,32,26,315,28,33,12,230,*41
$GSENSORD,-0.250,-0.060,0.120
$GPRMC,142018.00,A,6001.05307,N,03014.25570,E,5.773,149.47,110416,,,A*6F
$GPVTG,149.47,T,,M,5.773,N,10.692,K,A*08
$GPGGA,142018.00,6001.05307,N,03014.25570,E,1,09,1.05,0.2,M,15.9,M,,*55
$GPGSV,4,1,15,01,03,010,,02,09,151,33,03,06,036,,06,28,114,38*76
$GPGSV,4,2,15,12,59,258,29,14,27,314,26,15,04,205,,17,36,058,31*79
$GPGSV,4,3,15,19,59,087,36,22,09,005,17,24,64,194,33,25,22,265,18*79
$GPGSV,4,4,15,28,01,085,,32,26,315,27,33,12,230,*4E
$GSENSORD,-0.180,-0.060,0.060
$GPRMC,142019.00,A,6001.05234,N,03014.25666,E,2.167,149.31,110416,,,A*6E
$GPVTG,149.31,T,,M,2.167,N,4.014,K,A*30
$GPGGA,142019.00,6001.05234,N,03014.25666,E,1,09,1.05,0.2,M,15.9,M,,*51
$GPGSV,4,1,15,01,03,010,,02,09,151,34,03,06,036,,06,28,114,38*71
$GPGSV,4,2,15,12,59,258,29,14,27,314,26,15,04,205,,17,36,058,32*7A
$GPGSV,4,3,15,19,59,087,36,22,09,005,17,24,64,194,29,25,22,265,21*78
$GPGSV,4,4,15,28,01,085,,32,26,315,26,33,12,230,*4F
$GSENSORD,-0.180,-0.060,0.060
$GPRMC,142020.00,A,6001.05222,N,03014.25699,E,0.016,,110416,,,A*76
$GPVTG,,T,,M,0.016,N,0.030,K,A*27
$GPGGA,142020.00,6001.05222,N,03014.25699,E,1,09,0.95,0.2,M,15.9,M,,*54
$GPGSA,A,3,24,19,12,17,14,06,32,25,02,,,,1.69,0.95,1.40*09
$GPGSV,4,1,15,01,03,010,,02,09,151,37,03,06,036,,06,28,114,38*72
$GPGSV,4,2,15,12,59,258,30,14,27,314,27,15,04,205,,17,36,058,31*70
$GPGSV,4,3,15,19,59,087,35,22,09,005,20,24,64,194,32,25,22,265,22*76
$GPGSV,4,4,15,28,01,085,,32,26,315,26,33,12,230,*4F
$GSENSORD,-0.060,-0.060,0.060
$GPRMC,142021.00,A,6001.05220,N,03014.25714,E,0.109,,110416,,,A*7E
$GPVTG,,T,,M,0.109,N,0.201,K,A*28
$GPGGA,142021.00,6001.05220,N,03014.25714,E,1,09,0.95,0.2,M,15.9,M,,*53
$GPGSA,A,3,24,19,12,17,14,06,32,25,02,,,,1.69,0.95,1.40*09
$GPGSV,4,1,15,01,03,010,,02,09,151,36,03,06,036,14,06,28,114,38*76
$GPGSV,4,2,15,12,59,258,30,14,27,314,28,15,04,205,,17,36,058,31*7F
$GPGSV,4,3,15,19,59,087,34,22,09,005,22,24,64,194,33,25,22,265,23*75
$GPGSV,4,4,15,28,01,085,,32,26,315,27,33,12,230,*4E
$GSENSORD,0.180,0.060,0.060
$GPRMC,142022.00,A,6001.05189,N,03014.25767,E,2.037,149.70,110416,,,A*62
$GPVTG,149.70,T,,M,2.037,N,3.773,K,A*30
$GPGGA,142022.00,6001.05189,N,03014.25767,E,1,09,0.95,0.1,M,15.9,M,,*57
$GPGSA,A,3,24,19,12,17,14,06,32,25,02,,,,1.69,0.95,1.40*09
$GPGSV,4,1,15,01,03,010,,02,09,151,36,03,06,036,13,06,28,114,38*71
$GPGSV,4,2,15,12,59,258,30,14,27,314,27,15,04,205,,17,36,058,29*79
$GPGSV,4,3,15,19,59,087,34,22,09,005,20,24,64,194,35,25,22,265,23*71
$GPGSV,4,4,15,28,01,085,,32,26,315,27,33,12,230,*4E
$GSENSORD,0.180,-0.060,0.060
$GPRMC,142023.00,A,6001.05091,N,03014.25894,E,5.235,150.79,110416,,,A*6E
$GPVTG,150.79,T,,M,5.235,N,9.695,K,A*35
$GPGGA,142023.00,6001.05091,N,03014.25894,E,1,09,0.95,-0.1,M,15.9,M,,*70
$GPGSA,A,3,24,19,12,17,14,06,32,25,02,,,,1.69,0.95,1.40*09
$GPGSV,4,1,15,01,03,010,,02,09,151,32,03,06,036,12,06,28,114,39*75
$GPGSV,4,2,15,12,59,258,30,14,27,314,27,15,04,205,,17,36,058,29*79
$GPGSV,4,3,15,19,59,087,35,22,09,005,19,24,64,194,37,25,22,265,22*79
$GPGSV,4,4,15,28,01,085,,32,26,315,28,33,12,230,*41
$GSENSORD,0.120,-0.060,0.060
$GPRMC,142024.00,A,6001.04919,N,03014.26101,E,7.999,150.14,110416,,,A*63
$GPVTG,150.14,T,,M,7.999,N,14.815,K,A*0B
$GPGGA,142024.00,6001.04919,N,03014.26101,E,1,09,0.95,-0.1,M,15.9,M,,*79
$GPGSA,A,3,24,19,12,17,14,06,32,25,02,,,,1.69,0.95,1.40*09
$GPGSV,4,1,15,01,03,010,,02,09,151,33,03,06,036,09,06,28,114,37*70
$GPGSV,4,2,15,12,59,258,30,14,27,314,26,15,04,205,,17,36,058,30*70
$GPGSV,4,3,15,19,59,087,36,22,09,005,16,24,64,194,35,25,22,265,20*75
$GPGSV,4,4,15,28,01,085,,32,26,315,28,33,12,230,*41
$GSENSORD,0.120,0.060,0.060
$GPRMC,142025.00,A,6001.04704,N,03014.26369,E,9.720,149.66,110416,,,A*63
$GPVTG,149.66,T,,M,9.720,N,18.002,K,A*06
$GPGGA,142025.00,6001.04704,N,03014.26369,E,1,09,0.95,-0.2,M,15.9,M,,*75
$GPGSA,A,3,24,19,12,17,14,06,32,25,02,,,,1.69,0.95,1.40*09
$GPGSV,4,1,15,01,03,010,,02,09,151,36,03,06,036,08,06,28,114,39*7A
$GPGSV,4,2,15,12,59,258,30,14,27,314,26,15,04,205,,17,36,058,31*71
$GPGSV,4,3,15,19,59,087,36,22,09,005,14,24,64,194,35,25,22,265,21*76
$GPGSV,4,4,15,28,01,085,,32,26,315,29,33,12,230,*40
$GSENSORD,-0.120,-0.060,0.060
$GPRMC,142026.00,A,6001.04474,N,03014.26645,E,9.722,149.79,110416,,,A*63
$GPVTG,149.79,T,,M,9.722,N,18.004,K,A*0C
$GPGGA,142026.00,6001.04474,N,03014.26645,E,1,09,0.95,-0.3,M,15.9,M,,*78
$GPGSA,A,3,24,19,12,17,14,06,32,25,02,,,,1.69,0.95,1.40*09
$GPGSV,4,1,15,01,03,010,,02,09,151,36,03,06,036,08,06,28,114,39*7A
$GPGSV,4,2,15,12,59,258,30,14,27,314,26,15,04,205,,17,36,058,30*70
$GPGSV,4,3,15,19,59,087,36,22,09,005,13,24,64,194,33,25,22,265,21*77
$GPGSV,4,4,15,28,01,085,,32,26,315,29,33,12,230,*40
$GSENSORD,0.060,-0.060,0.060
$GPRMC,142027.00,A,6001.04242,N,03014.26918,E,9.800,149.70,110416,,,A*60
$GPVTG,149.70,T,,M,9.800,N,18.150,K,A*0A
$GPGGA,142027.00,6001.04242,N,03014.26918,E,1,10,0.95,-0.3,M,15.9,M,,*75
$GPGSA,A,3,24,19,12,17,14,06,32,25,02,03,,,1.69,0.95,1.40*0A
$GPGSV,4,1,15,01,03,010,,02,09,151,35,03,06,036,11,06,28,114,40*7F
$GPGSV,4,2,15,12,59,258,29,14,27,314,26,15,04,205,,17,36,058,29*70
$GPGSV,4,3,15,19,59,087,36,22,09,005,13,24,64,194,33,25,22,265,22*74
$GPGSV,4,4,15,28,01,085,,32,26,315,29,33,12,230,*40
$GSENSORD,0.180,0.060,0.120
$GPRMC,142028.00,A,6001.03986,N,03014.27215,E,11.122,149.73,110416,,,A*5F
$GPVTG,149.73,T,,M,11.122,N,20.597,K,A*3D
$GPGGA,142028.00,6001.03986,N,03014.27215,E,1,10,0.95,-0.3,M,15.9,M,,*79
$GPGSA,A,3,24,19,12,17,14,06,32,25,02,03,,,1.69,0.95,1.40*0A
$GPGSV,4,1,15,01,03,010,,02,09,151,35,03,06,036,13,06,28,114,39*73
$GPGSV,4,2,15,12,59,258,30,14,27,314,27,15,04,205,,17,36,058,30*71
$GPGSV,4,3,15,19,59,087,36,22,09,005,15,24,64,194,35,25,22,265,23*75
$GPGSV,4,4,15,28,01,085,,32,26,315,29,33,12,230,*40
$GSENSORD,0.180,0.120,-0.180
$GPRMC,142029.00,A,6001.03697,N,03014.27562,E,12.749,149.54,110416,,,A*5B
$GPVTG,149.54,T,,M,12.749,N,23.611,K,A*3E
$GPGGA,142029.00,6001.03697,N,03014.27562,E,1,10,0.95,-0.4,M,15.9,M,,*77
$GPGSA,A,3,24,19,12,17,14,06,32,25,02,03,,,1.69,0.95,1.40*0A
$GPGSV,4,1,15,01,03,010,,02,09,151,34,03,06,036,15,06,28,114,39*74
$GPGSV,4,2,15,12,59,258,29,14,27,314,27,15,04,205,,17,36,058,30*79
$GPGSV,4,3,15,19,59,087,36,22,09,005,14,24,64,194,35,25,22,265,23*74
$GPGSV,4,4,15,28,01,085,,32,26,315,29,33,12,230,*40
$GSENSORD,0.120,-0.120,0.120
$GPRMC,142030.00,A,6001.03364,N,03014.27954,E,14.607,149.57,110416,,,A*5D
$GPVTG,149.57,T,,M,14.607,N,27.051,K,A*36
$GPGGA,142030.00,6001.03364,N,03014.27954,E,1,10,0.95,-0.5,M,15.9,M,,*7E
$GPGSA,A,3,24,19,12,17,14,06,32,25,02,03,,,1.69,0.95,1.40*0A
$GPGSV,4,1,15,01,03,010,,02,09,151,33,03,06,036,14,06,28,114,38*73
$GPGSV,4,2,15,12,59,258,29,14,27,314,27,15,04,205,,17,36,058,30*79
$GPGSV,4,3,15,19,59,087,35,22,09,005,12,24,64,194,34,25,22,265,22*71
$GPGSV,4,4,15,28,01,085,,32,26,315,30,33,12,230,*48
$GSENSORD,0.120,0.060,0.060
$GPRMC,142031.00,A,6001.02985,N,03014.28399,E,16.383,149.59,110416,,,A*59
$GPVTG,149.59,T,,M,16.383,N,30.341,K,A*37
$GPGGA,142031.00,6001.02985,N,03014.28399,E,1,10,0.95,-0.6,M,15.9,M,,*7C
$GPGSA,A,3,24,19,12,17,14,06,32,25,02,03,,,1.69,0.95,1.40*0A
$GPGSV,4,1,15,01,03,010,,02,09,151,34,03,06,036,14,06,28,114,38*74
$GPGSV,4,2,15,12,59,258,29,14,27,314,28,15,04,205,,17,36,058,30*76
$GPGSV,4,3,15,19,59,087,35,22,09,005,10,24,64,194,34,25,22,265,21*70
$GPGSV,4,4,15,28,01,085,,32,26,315,30,33,12,230,*48
$GSENSORD,-0.120,-0.120,0.120
$GPRMC,142032.00,A,6001.02594,N,03014.28848,E,16.205,149.97,110416,,,A*5C
$GPVTG,149.97,T,,M,16.205,N,30.013,K,A*3E
$GPGGA,142032.00,6001.02594,N,03014.28848,E,1,10,0.95,-0.6,M,15.9,M,,*74
$GPGSA,A,3,24,19,12,17,14,06,32,25,02,03,,,1.69,0.95,1.40*0A
$GPGSV,4,1,15,01,03,010,,02,09,151,33,03,06,036,12,06,28,114,37*7A
$GPGSV,4,2,15,12,59,258,29,14,27,314,27,15,04,205,,17,36,058,33*7A
$GPGSV,4,3,15,19,59,087,35,22,09,005,16,24,64,194,34,25,22,265,20*77
$GPGSV,4,4,15,28,01,085,,32,26,315,29,33,12,230,*40
$GSENSORD,0.060,-0.120,0.060
$GPRMC,142033.00,A,6001.02213,N,03014.29295,E,16.062,149.77,110416,,,A*53
$GPVTG,149.77,T,,M,16.062,N,29.747,K,A*3D
$GPGGA,142033.00,6001.02213,N,03014.29295,E,1,10,0.95,-0.7,M,15.9,M,,*77
$GPGSA,A,3,24,19,12,17,14,06,32,25,02,03,,,1.69,0.95,1.40*0A
$GPGSV,4,1,15,01,03,010,,02,09,151,33,03,06,036,13,06,28,114,36*7A
$GPGSV,4,2,15,12,59,258,29,14,27,314,26,15,04,205,,17,36,058,31*79
$GPGSV,4,3,15,19,59,087,36,22,09,005,18,24,64,194,33,25,22,265,21*7C
$GPGSV,4,4,15,28,01,085,,32,26,315,29,33,12,230,*40
$GSENSORD,0.060,0.060,0.060
$GPRMC,142034.00,A,6001.01827,N,03014.29760,E,16.636,149.53,110416,,,A*54
$GPVTG,149.53,T,,M,16.636,N,30.810,K,A*39
$GPGGA,142034.00,6001.01827,N,03014.29760,E,1,10,0.95,-0.7,M,15.9,M,,*71
$GPGSA,A,3,24,19,12,17,14,06,32,25,02,03,,,1.69,0.95,1.40*0A
$GPGSV,4,1,15,01,03,010,,02,09,151,35,03,06,036,12,06,28,114,35*7E
$GPGSV,4,2,15,12,59,258,29,14,27,314,26,15,04,205,,17,36,058,31*79
$GPGSV,4,3,15,19,59,087,35,22,09,005,16,24,64,194,34,25,22,265,23*74
$GPGSV,4,4,15,28,01,085,,32,26,315,28,33,12,230,*41
$GSENSORD,0.120,0.180,0.120
$GPRMC,142035.00,A,6001.01412,N,03014.30254,E,17.788,149.13,110416,,,A*54
$GPVTG,149.13,T,,M,17.788,N,32.943,K,A*3D
$GPGGA,142035.00,6001.01412,N,03014.30254,E,1,10,0.95,-0.8,M,15.9,M,,*7F
$GPGSA,A,3,24,19,12,17,14,06,32,25,02,03,,,1.69,0.95,1.40*0A
$GPGSV,4,1,15,01,03,010,,02,09,151,34,03,06,036,11,06,28,114,38*71
$GPGSV,4,2,15,12,59,258,29,14,27,314,26,15,04,205,,17,36,058,31*79
$GPGSV,4,3,15,19,59,087,35,22,09,005,14,24,64,194,34,25,22,265,24*71
$GPGSV,4,4,15,28,01,085,,32,26,315,28,33,12,230,*41
$GSENSORD,0.180,0.060,0.120
$GPRMC,142036.00,A,6001.00972,N,03014.30783,E,18.957,148.80,110416,,,A*5A
$GPVTG,148.80,T,,M,18.957,N,35.108,K,A*35
$GPGGA,142036.00,6001.00972,N,03014.30783,E,1,10,0.83,-0.9,M,15.9,M,,*7F
$GPGSA,A,3,24,19,12,17,14,06,32,25,02,03,,,1.48,0.83,1.23*0B
$GPGSV,4,1,15,01,03,010,,02,09,151,34,03,06,036,12,06,28,114,36*7C
$GPGSV,4,2,15,12,59,258,29,14,27,314,27,15,04,205,,17,36,058,23*7B
$GPGSV,4,3,15,19,59,087,36,22,09,005,11,24,64,194,35,25,22,265,24*76
$GPGSV,4,4,15,28,01,085,,32,26,315,28,33,12,230,*41
$GSENSORD,0.180,-0.060,0.060
$GPRMC,142037.00,A,6001.00505,N,03014.31342,E,19.916,148.94,110416,,,A*5E
$GPVTG,148.94,T,,M,19.916,N,36.885,K,A*3B
$GPGGA,142037.00,6001.00505,N,03014.31342,E,1,10,0.83,-0.9,M,15.9,M,,*7A
$GPGSA,A,3,24,19,12,17,14,06,32,25,02,03,,,1.48,0.83,1.23*0B
$GPGSV,4,1,15,01,03,010,,02,09,151,34,03,06,036,10,06,28,114,37*7F
$GPGSV,4,2,15,12,59,258,29,14,27,314,27,15,04,205,,17,36,058,22*7A
$GPGSV,4,3,15,19,59,087,36,22,09,005,09,24,64,194,34,25,22,265,23*79
$GPGSV,4,4,15,28,01,085,,32,26,315,28,33,12,230,*41
$GSENSORD,-0.120,-0.060,0.060
$GPRMC,142038.00,A,6001.00007,N,03014.31922,E,21.114,149.61,110416,,,A*50
$GPVTG,149.61,T,,M,21.114,N,39.103,K,A*39
$GPGGA,142038.00,6001.00007,N,03014.31922,E,1,09,0.95,-0.9,M,15.9,M,,*71
$GPGSA,A,3,24,19,12,17,14,06,32,25,02,,,,1.69,0.95,1.40*09
$GPGSV,4,1,15,01,03,010,,02,09,151,34,03,06,036,09,06,28,114,37*77
$GPGSV,4,2,15,12,59,258,29,14,27,314,26,15,04,205,,17,36,058,21*78
$GPGSV,4,3,15,19,59,087,36,22,09,005,11,24,64,194,35,25,22,265,20*72
$GPGSV,4,4,15,28,01,085,,32,26,315,28,33,12,230,*41
$GSENSORD,-0.120,-0.120,0.060
$GPRMC,142039.00,A,6000.99495,N,03014.32512,E,21.317,149.58,110416,,,A*58
$GPVTG,149.58,T,,M,21.317,N,39.479,K,A*3A
$GPGGA,142039.00,6000.99495,N,03014.32512,E,1,10,0.83,-1.0,M,15.9,M,,*75
$GPGSA,A,3,24,19,12,17,14,06,32,25,02,03,,,1.48,0.83,1.23*0B
$GPGSV,4,1,15,01,03,010,,02,09,151,34,03,06,036,12,06,28,114,40*7D
$GPGSV,4,2,15,12,59,258,28,14,27,314,26,15,04,205,,17,36,058,21*79
$GPGSV,4,3,15,19,59,087,36,22,09,005,14,24,64,194,35,25,22,265,16*72
$GPGSV,4,4,15,28,01,085,,32,26,315,29,33,12,230,*40
$GSENSORD,-0.120,0.120,-0.060
$GPRMC,142040.00,A,6000.98981,N,03014.33111,E,21.420,149.39,110416,,,A*5D
$GPVTG,149.39,T,,M,21.420,N,39.670,K,A*35
$GPGGA,142040.00,6000.98981,N,03014.33111,E,1,10,0.93,-1.0,M,15.9,M,,*75
$GPGSA,A,3,24,19,12,17,14,06,32,25,02,03,,,1.60,0.93,1.31*03
$GPGSV,4,1,15,01,03,010,,02,09,151,34,03,06,036,12,06,28,114,36*7C
$GPGSV,4,2,15,12,59,258,29,14,27,314,25,15,04,205,,17,36,058,21*7B
$GPGSV,4,3,15,19,59,087,36,22,09,005,14,24,64,194,34,25,22,265,14*71
$GPGSV,4,4,15,28,01,085,,32,26,315,29,33,12,230,*40
$GSENSORD,0.120,0.060,0.120
$GPRMC,142041.00,A,6000.98470,N,03014.33702,E,21.166,149.64,110416,,,A*54
$GPVTG,149.64,T,,M,21.166,N,39.199,K,A*3A
$GPGGA,142041.00,6000.98470,N,03014.33702,E,1,10,0.93,-1.0,M,15.9,M,,*73
$GPGSA,A,3,24,19,12,17,14,06,32,25,02,03,,,1.60,0.93,1.31*03
$GPGSV,4,1,15,01,03,010,,02,09,151,33,03,06,036,12,06,28,114,38*75
$GPGSV,4,2,15,12,59,258,29,14,27,314,25,15,04,205,,17,36,058,21*7B
$GPGSV,4,3,15,19,59,087,36,22,09,005,14,24,64,194,35,25,22,265,11*75
$GPGSV,4,4,15,28,01,085,,32,26,315,29,33,12,230,*40
$GSENSORD,0.060,0.060,0.060
$GPRMC,142042.00,A,6000.97968,N,03014.34284,E,20.625,149.23,110416,,,A*52
$GPVTG,149.23,T,,M,20.625,N,38.197,K,A*37
$GPGGA,142042.00,6000.97968,N,03014.34284,E,1,09,0.93,-0.9,M,15.9,M,,*77
$GPGSA,A,3,24,19,12,17,14,06,32,02,03,,,,1.60,0.93,1.31*04
$GPGSV,4,1,15,01,03,010,,02,09,151,34,03,06,036,10,06,28,114,40*7F
$GPGSV,4,2,15,12,59,258,28,14,27,314,25,15,04,205,,17,35,058,25*7D
$GPGSV,4,3,15,19,59,087,36,22,09,005,12,24,64,194,34,25,22,265,09*7B
$GPGSV,4,4,15,28,01,085,,32,26,315,28,33,12,230,*41
$GSENSORD,-0.120,0.060,0.180
$GPRMC,142043.00,A,6000.97479,N,03014.34854,E,20.015,149.38,110416,,,A*56
$GPVTG,149.38,T,,M,20.015,N,37.069,K,A*37
$GPGGA,142043.00,6000.97479,N,03014.34854,E,1,08,1.05,-0.8,M,15.9,M,,*72
$GPGSA,A,3,24,19,12,17,14,06,32,02,,,,,1.80,1.05,1.46*07
$GPGSV,4,1,15,01,03,010,,02,09,151,35,03,06,036,09,06,28,114,38*79
$GPGSV,4,2,15,12,59,258,28,14,27,314,25,15,04,205,15,17,35,058,24*78
$GPGSV,4,3,15,19,59,087,36,22,09,005,09,24,64,194,34,25,22,265,09*71
$GPGSV,4,4,15,28,01,085,,32,26,315,29,33,12,230,*40
$GSENSORD,-0.120,0.060,0.060
$GPRMC,142044.00,A,6000.97013,N,03014.35397,E,19.032,149.26,110416,,,A*5C
$GPVTG,149.26,T,,M,19.032,N,35.247,K,A*3B
$GPGGA,142044.00,6000.97013,N,03014.35397,E,1,09,1.05,-0.7,M,15.9,M,,*76
$GPGSV,4,1,15,01,03,010,,02,09,151,34,03,06,036,08,06,28,114,35*74
$GPGSV,4,2,15,12,59,258,28,14,27,314,25,15,04,205,,17,35,058,22*7A
$GPGSV,4,3,15,19,58,086,37,22,09,005,08,24,64,194,34,25,22,265,10*79
$GPGSV,4,4,15,28,01,085,,32,26,315,28,33,12,230,*41
$GSENSORD,-0.120,-0.060,-0.060
$GPRMC,142045.00,A,6000.96570,N,03014.35917,E,18.205,149.18,110416,,,A*54
$GPVTG,149.18,T,,M,18.205,N,33.716,K,A*36
$GPGGA,142045.00,6000.96570,N,03014.35917,E,1,09,1.05,-0.7,M,15.9,M,,*74
$GPGSV,4,1,15,01,03,010,,02,09,151,34,03,06,036,08,06,28,114,37*76
$GPGSV,4,2,15,12,59,258,28,14,27,314,25,15,04,205,16,17,35,058,23*7C
$GPGSV,4,3,15,19,58,086,36,22,09,005,07,24,64,194,33,25,22,265,11*71
$GPGSV,4,4,15,28,01,085,,32,26,315,29,33,12,230,*40
$GSENSORD,-0.180,-0.120,0.120
$GPRMC,142046.00,A,6000.96146,N,03014.36414,E,17.376,149.11,110416,,,A*58
$GPVTG,149.11,T,,M,17.376,N,32.180,K,A*3D
$GPGGA,142046.00,6000.96146,N,03014.36414,E,1,09,1.05,-0.8,M,15.9,M,,*74
$GPGSV,4,1,15,01,03,010,,02,09,151,35,03,06,036,08,06,28,114,39*79
$GPGSV,4,2,15,12,59,258,27,14,27,314,25,15,04,205,18,17,35,058,24*7A
$GPGSV,4,3,15,19,58,086,36,22,09,005,07,24,64,194,33,25,22,265,13*73
$GPGSV,4,4,15,28,01,085,,32,26,315,29,33,12,230,*40
$GSENSORD,0.120,-0.060,0.120
$GPRMC,142047.00,A,6000.95741,N,03014.36882,E,16.428,149.33,110416,,,A*55
$GPVTG,149.33,T,,M,16.428,N,30.424,K,A*39
$GPGGA,142047.00,6000.95741,N,03014.36882,E,1,09,1.05,-0.7,M,15.9,M,,*7B
$GPGSV,4,1,15,01,03,010,,02,09,151,36,03,06,036,08,06,28,114,39*7A
$GPGSV,4,2,15,12,59,258,27,14,27,314,25,15,04,205,19,17,35,058,25*7A
$GPGSV,4,3,15,19,58,086,36,22,09,005,07,24,64,194,34,25,22,265,13*74
$GPGSV,4,4,15,28,01,085,,32,26,315,29,33,12,230,*40
$GSENSORD,0.120,-0.060,0.060
$GPRMC,142048.00,A,6000.95350,N,03014.37332,E,16.007,149.24,110416,,,A*50
$GPVTG,149.24,T,,M,16.007,N,29.645,K,A*3B
$GPGGA,142048.00,6000.95350,N,03014.37332,E,1,09,1.05,-0.7,M,15.9,M,,*71
$GPGSV,4,1,15,01,03,010,,02,09,151,35,03,06,036,08,06,28,114,40*77
$GPGSV,4,2,15,12,59,258,28,14,27,314,25,15,04,205,19,17,35,058,25*75
$GPGSV,4,3,15,19,58,086,36,22,09,005,07,24,64,194,34,25,22,265,12*75
$GPGSV,4,4,15,28,01,085,,32,26,315,28,33,12,230,*41
$GSENSORD,-0.060,-0.060,0.120
$GPRMC,142049.00,A,6000.94978,N,03014.37768,E,15.441,149.77,110416,,,A*58
$GPVTG,149.77,T,,M,15.441,N,28.597,K,A*35
$GPGGA,142049.00,6000.94978,N,03014.37768,E,1,09,1.38,-0.6,M,15.9,M,,*75
$GPGSA,A,3,24,19,12,17,14,06,32,25,02,,,,2.01,1.38,1.46*04
$GPGSV,4,1,15,01,03,010,,02,09,151,36,03,06,036,08,06,28,114,39*7A
$GPGSV,4,2,15,12,59,258,28,14,27,314,25,15,04,205,18,17,35,058,30*70
$GPGSV,4,3,15,19,58,086,36,22,09,005,07,24,63,193,34,25,22,265,13*74
$GPGSV,4,4,15,28,01,085,,32,26,315,28,33,12,230,*41
$GSENSORD,-0.060,-0.060,-0.060
$GPRMC,142050.00,A,6000.94626,N,03014.38174,E,14.403,149.85,110416,,,A*5A
$GPVTG,149.85,T,,M,14.403,N,26.675,K,A*3E
$GPGGA,142050.00,6000.94626,N,03014.38174,E,1,09,1.05,-0.7,M,15.9,M,,*72
$GPGSV,4,1,15,01,03,010,,02,09,151,33,03,06,036,08,06,28,114,39*7F
$GPGSV,4,2,15,12,59,258,28,14,27,314,25,15,04,205,17,17,35,058,22*7C
$GPGSV,4,3,15,19,58,086,36,22,09,005,07,24,63,193,33,25,23,266,12*70
$GPGSV,4,4,15,28,01,085,,32,26,315,28,33,12,230,*41
$GSENSORD,-0.120,-0.060,0.180
$GPRMC,142051.00,A,6000.94291,N,03014.38559,E,13.707,149.88,110416,,,A*55
$GPVTG,149.88,T,,M,13.707,N,25.386,K,A*39
$GPGGA,142051.00,6000.94291,N,03014.38559,E,1,08,1.05,-0.5,M,15.9,M,,*73
$GPGSA,A,3,24,19,12,17,14,06,32,02,,,,,1.80,1.05,1.46*07
$GPGSV,4,1,15,01,03,010,,02,09,151,34,03,06,036,07,06,28,114,39*77
$GPGSV,4,2,15,12,59,258,28,14,27,314,25,15,04,205,,17,35,058,21*79
$GPGSV,4,3,15,19,58,086,37,22,09,005,,24,63,193,33,25,23,266,09*7C
$GPGSV,4,4,15,28,01,085,,32,26,315,28,33,12,230,*41
$GSENSORD,-0.060,-0.060,0.060
$GPRMC,142052.00,A,6000.93970,N,03014.38929,E,13.137,149.73,110416,,,A*5F
$GPVTG,149.73,T,,M,13.137,N,24.330,K,A*34
$GPGGA,142052.00,6000.93970,N,03014.38929,E,1,08,1.05,-0.5,M,15.9,M,,*78
$GPGSA,A,3,24,19,12,17,14,06,32,02,,,,,1.80,1.05,1.46*07
$GPGSV,4,1,15,01,03,010,,02,09,151,35,03,06,036,07,06,28,114,39*76
$GPGSV,4,2,15,12,59,258,28,14,27,314,25,15,04,205,,17,35,058,22*7A
$GPGSV,4,3,15,19,58,086,36,22,09,005,,24,63,193,34,25,23,266,08*7B
$GPGSV,4,4,15,28,01,085,,32,26,315,28,33,12,230,*41
$GSENSORD,0.180,-0.060,0.060
$GPRMC,142053.00,A,6000.93652,N,03014.39295,E,13.108,149.33,110416,,,A*54
$GPVTG,149.33,T,,M,13.108,N,24.276,K,A*3F
$GPGGA,142053.00,6000.93652,N,03014.39295,E,1,08,1.05,-0.4,M,15.9,M,,*7A
$GPGSA,A,3,24,19,12,17,14,06,32,02,,,,,1.80,1.05,1.46*07
$GPGSV,4,1,15,01,03,010,,02,09,151,35,03,06,036,07,06,28,114,39*76
$GPGSV,4,2,15,12,59,258,27,14,27,314,25,15,04,205,,17,35,058,23*74
$GPGSV,4,3,15,19,58,086,36,22,09,005,,24,63,193,34,25,23,266,09*7A
$GPGSV,4,4,15,28,00,086,,32,26,315,28,33,12,230,*43
$GSENSORD,0.060,-0.120,0.060
$GPRMC,142054.00,A,6000.93335,N,03014.39661,E,13.193,149.75,110416,,,A*58
$GPVTG,149.75,T,,M,13.193,N,24.433,K,A*38
$GPGGA,142054.00,6000.93335,N,03014.39661,E,1,08,1.05,-0.4,M,15.9,M,,*76
$GPGSA,A,3,24,19,12,17,14,06,32,02,,,,,1.80,1.05,1.46*07
$GPGSV,4,1,15,01,03,010,,02,09,151,35,03,06,036,07,06,28,114,39*76
$GPGSV,4,2,15,12,59,258,28,14,27,314,25,15,04,205,17,17,35,058,23*7D
$GPGSV,4,3,15,19,58,086,36,22,09,005,,24,63,193,34,25,23,266,09*7A
$GPGSV,4,4,15,28,00,086,,32,26,315,28,33,12,230,*43
$GSENSORD,0.120,0.060,0.060
$GPRMC,142055.00,A,6000.93005,N,03014.40054,E,14.132,150.01,110416,,,A*50
$GPVTG,150.01,T,,M,14.132,N,26.173,K,A*3C
$GPGGA,142055.00,6000.93005,N,03014.40054,E,1,09,1.05,-0.4,M,15.9,M,,*78
$GPGSV,4,1,15,01,03,010,,02,09,151,36,03,06,036,07,06,28,114,36*7A
$GPGSV,4,2,15,12,59,258,28,14,27,314,25,15,04,205,17,17,35,058,30*7F
$GPGSV,4,3,15,19,58,086,36,22,09,005,,24,63,193,35,25,23,266,11*72
$GPGSV,4,4,15,28,00,086,,32,26,315,28,33,12,230,*43
$GSENSORD,0.060,-0.120,0.180
$GPRMC,142056.00,A,6000.92665,N,03014.40466,E,14.528,149.22,110416,,,A*51
$GPVTG,149.22,T,,M,14.528,N,26.905,K,A*33
$GPGGA,142056.00,6000.92665,N,03014.40466,E,1,09,1.05,-0.5,M,15.9,M,,*7E
$GPGSV,4,1,15,01,03,010,,02,09,151,36,03,06,036,07,06,28,114,39*75
$GPGSV,4,2,15,12,59,258,27,14,27,314,26,15,04,205,16,17,35,058,31*73
$GPGSV,4,3,15,19,58,086,36,22,09,005,,24,63,193,32,25,23,266,12*76
$GPGSV,4,4,15,28,00,086,,32,26,315,28,33,12,230,*43
$GSENSORD,-0.060,-0.120,0.060
$GPRMC,142057.00,A,6000.92320,N,03014.40884,E,14.626,149.21,110416,,,A*5A
$GPVTG,149.21,T,,M,14.626,N,27.087,K,A*3F
$GPGGA,142057.00,6000.92320,N,03014.40884,E,1,09,1.05,-0.6,M,15.9,M,,*78
$GPGSA,A,3,24,19,12,17,14,06,32,25,02,,,,1.80,1.05,1.47*01
$GPGSV,4,1,15,01,03,010,,02,09,151,36,03,06,036,08,06,28,114,39*7A
$GPGSV,4,2,15,12,59,258,27,14,27,314,25,15,04,205,19,17,35,058,31*7F
$GPGSV,4,3,15,19,58,086,36,22,09,005,,24,63,193,34,25,23,266,11*73
$GPGSV,4,4,15,28,00,086,,32,26,315,28,33,12,230,*43
$GSENSORD,-0.060,-0.120,0.060
$GPRMC,142058.00,A,6000.91983,N,03014.41288,E,14.097,149.39,110416,,,A*57
$GPVTG,149.39,T,,M,14.097,N,26.107,K,A*32
$GPGGA,142058.00,6000.91983,N,03014.41288,E,1,09,1.05,-0.6,M,15.9,M,,*70
$GPGSA,A,3,24,19,12,17,14,06,32,25,02,,,,1.80,1.05,1.47*01
$GPGSV,4,1,15,01,03,010,,02,09,151,39,03,06,036,08,06,28,114,39*75
$GPGSV,4,2,15,12,59,258,26,14,27,314,25,15,04,205,17,17,35,058,31*70
$GPGSV,4,3,15,19,58,086,36,22,09,005,,24,63,193,34,25,23,266,10*72
$GPGSV,4,4,15,28,00,086,,32,26,315,28,33,12,230,*43
$GSENSORD,0.060,-0.060,0.060
$GPRMC,142059.00,A,6000.91650,N,03014.41687,E,14.163,149.65,110416,,,A*5F
$GPVTG,149.65,T,,M,14.163,N,26.229,K,A*3E
$GPGGA,142059.00,6000.91650,N,03014.41687,E,1,10,0.95,-0.6,M,15.9,M,,*7B
$GPGSA,A,3,24,19,12,17,14,06,32,25,02,03,,,1.70,0.95,1.41*03
$GPGSV,4,1,15,01,03,010,,02,09,151,37,03,06,036,08,06,28,114,39*7B
$GPGSV,4,2,15,12,59,258,26,14,27,314,25,15,04,205,15,17,35,058,31*72
$GPGSV,4,3,15,19,58,086,36,22,09,005,,24,63,193,33,25,23,266,14*71
$GPGSV,4,4,15,28,00,086,,32,26,315,28,33,12,230,*43
$GSENSORD,0.060,-0.060,0.060
$GPRMC,142100.00,A,6000.91307,N,03014.42087,E,14.453,149.96,110416,,,A*5A
$GPVTG,149.96,T,,M,14.453,N,26.767,K,A*3B
$GPGGA,142100.00,6000.91307,N,03014.42087,E,1,10,1.05,-0.7,M,15.9,M,,*7D
$GPGSA,A,3,24,19,12,17,14,06,32,25,02,03,,,1.80,1.05,1.47*02
$GPGSV,4,1,15,01,03,010,,02,09,151,33,03,06,036,08,06,28,114,39*7F
$GPGSV,4,2,15,12,59,258,27,14,27,314,25,15,04,205,11,17,35,058,31*77
$GPGSV,4,3,15,19,58,086,36,22,09,005,,24,63,193,34,25,23,266,15*77
$GPGSV,4,4,15,28,00,086,,32,26,315,28,33,12,230,*43
$GSENSORD,0.060,-0.060,0.060
$GPRMC,142101.00,A,6000.90957,N,03014.42503,E,14.852,149.71,110416,,,A*58
$GPVTG,149.71,T,,M,14.852,N,27.506,K,A*3B
$GPGGA,142101.00,6000.90957,N,03014.42503,E,1,10,0.95,-0.6,M,15.9,M,,*72
$GPGSA,A,3,24,19,12,17,14,06,32,25,02,03,,,1.70,0.95,1.41*03
$GPGSV,4,1,15,01,03,010,,02,09,151,33,03,06,036,08,06,28,114,39*7F
$GPGSV,4,2,15,12,59,258,27,14,27,314,24,15,04,205,11,17,35,058,31*76
$GPGSV,4,3,15,19,58,086,37,22,09,005,,24,63,193,35,25,23,266,19*7B
$GPGSV,4,4,15,28,00,086,,32,26,315,28,33,12,230,*43
$GSENSORD,-0.060,-0.060,0.060
$GPRMC,142102.00,A,6000.90581,N,03014.42946,E,16.104,149.59,110416,,,A*53
$GPVTG,149.59,T,,M,16.104,N,29.824,K,A*3A
$GPGGA,142102.00,6000.90581,N,03014.42946,E,1,10,0.95,-0.6,M,15.9,M,,*7B
$GPGSA,A,3,24,19,12,17,14,06,32,25,02,03,,,1.70,0.95,1.41*03
$GPGSV,4,1,15,01,03,010,,02,09,151,37,03,06,036,08,06,28,114,39*7B
$GPGSV,4,2,15,12,59,258,28,14,27,314,25,15,04,205,09,17,35,058,31*71
$GPGSV,4,3,15,19,58,086,36,22,09,005,,24,63,193,35,25,23,266,21*71
$GPGSV,4,4,15,28,00,086,,32,26,315,28,33,12,230,*43
$GSENSORD,-0.060,-0.120,0.060
$GPRMC,142103.00,A,6000.90184,N,03014.43411,E,16.793,149.31,110416,,,A*5B
$GPVTG,149.31,T,,M,16.793,N,31.100,K,A*3A
$GPGGA,142103.00,6000.90184,N,03014.43411,E,1,10,0.95,-0.6,M,15.9,M,,*75
$GPGSA,A,3,24,19,12,17,14,06,32,25,02,03,,,1.70,0.95,1.41*03
$GPGSV,4,1,15,01,03,010,,02,09,151,37,03,06,036,07,06,28,114,39*74
$GPGSV,4,2,15,12,59,258,27,14,27,314,26,15,04,205,11,17,35,058,35*70
$GPGSV,4,3,15,19,58,086,36,22,09,005,,24,63,193,34,25,23,266,21*70
$GPGSV,4,4,15,28,00,086,,32,26,315,28,33,12,230,*43
$GSENSORD,-0.250,-0.120,-0.180
$GPRMC,142104.00,A,6000.89786,N,03014.43883,E,16.728,149.66,110416,,,A*55
$GPVTG,149.66,T,,M,16.728,N,30.980,K,A*39
$GPGGA,142104.00,6000.89786,N,03014.43883,E,1,10,0.95,-0.6,M,15.9,M,,*79
$GPGSA,A,3,24,19,12,17,14,06,32,25,02,03,,,1.70,0.95,1.41*03
$GPGSV,4,1,15,01,03,010,,02,09,151,37,03,06,036,07,06,28,114,39*74
$GPGSV,4,2,15,12,59,258,26,14,27,314,25,15,04,205,,17,35,058,32*75
$GPGSV,4,3,15,19,58,086,37,22,09,005,,24,63,193,31,25,23,266,21*74
$GPGSV,4,4,15,28,00,086,,32,26,315,28,33,12,230,*43
$GSENSORD,-0.120,-0.060,0.120
$GPRMC,142105.00,A,6000.89399,N,03014.44343,E,16.032,149.55,110416,,,A*52
$GPVTG,149.55,T,,M,16.032,N,29.691,K,A*32
$GPGGA,142105.00,6000.89399,N,03014.44343,E,1,10,0.95,-0.5,M,15.9,M,,*71
$GPGSA,A,3,24,19,12,17,14,06,32,25,02,03,,,1.70,0.95,1.41*03
$GPGSV,4,1,15,01,03,010,,02,09,151,36,03,06,036,07,06,28,114,39*75
$GPGSV,4,2,15,12,59,258,26,14,27,314,25,15,04,205,,17,35,058,31*76
$GPGSV,4,3,15,19,58,086,37,22,09,005,,24,63,193,33,25,23,266,21*76
$GPGSV,4,4,15,28,00,086,,32,26,315,28,33,12,230,*43
$GSENSORD,-0.060,-0.060,0.060
$GPRMC,142106.00,A,6000.89030,N,03014.44781,E,15.265,149.52,110416,,,A*5F
$GPVTG,149.52,T,,M,15.265,N,28.272,K,A*3E
$GPGGA,142106.00,6000.89030,N,03014.44781,E,1,10,0.95,-0.6,M,15.9,M,,*7B
$GPGSA,A,3,24,19,12,17,14,06,32,25,02,03,,,1.70,0.95,1.41*03
$GPGSV,4,1,15,01,03,010,,02,09,151,35,03,06,036,07,06,28,114,37*78
$GPGSV,4,2,15,12,59,258,26,14,27,314,25,15,04,205,,17,35,058,31*76
$GPGSV,4,3,15,19,58,086,37,22,09,005,,24,63,193,33,25,23,266,21*76
$GPGSV,4,4,15,28,00,086,,32,26,315,28,33,12,230,*43
$GSENSORD,-0.060,-0.120,0.060
$GPRMC,142107.00,A,6000.88676,N,03014.45198,E,14.611,149.85,110416,,,A*58
$GPVTG,149.85,T,,M,14.611,N,27.059,K,A*36
$GPGGA,142107.00,6000.88676,N,03014.45198,E,1,10,0.95,-0.5,M,15.9,M,,*73
$GPGSA,A,3,24,19,12,17,14,06,32,25,02,03,,,1.70,0.95,1.41*03
$GPGSV,4,1,15,01,03,010,,02,09,151,36,03,06,036,08,06,28,114,38*7B
$GPGSV,4,2,15,12,59,258,25,14,27,314,25,15,04,205,,17,35,058,32*76
$GPGSV,4,3,15,19,58,086,37,22,09,005,,24,63,193,33,25,23,266,20*77
$GPGSV,4,4,15,28,00,086,,32,26,315,28,33,12,230,*43
$GSENSORD,-0.060,-0.120,0.120
$GPRMC,142108.00,A,6000.88340,N,03014.45591,E,13.863,149.98,110416,,,A*5A
$GPVTG,149.98,T,,M,13.863,N,25.675,K,A*3C
$GPGGA,142108.00,6000.88340,N,03014.45591,E,1,10,0.95,-0.6,M,15.9,M,,*72
$GPGSA,A,3,24,19,12,17,14,06,32,25,02,03,,,1.70,0.95,1.41*03
$GPGSV,4,1,15,01,03,010,,02,09,151,36,03,06,036,08,06,28,114,39*7A
$GPGSV,4,2,15,12,59,258,26,14,27,314,26,15,04,205,,17,35,058,31*75
$GPGSV,4,3,15,19,58,086,37,22,09,005,,24,63,193,34,25,23,266,19*7A
$GPGSV,4,4,15,28,00,086,,32,26,315,28,33,12,230,*43
$GSENSORD,-0.120,-0.120,0.060
$GPRMC,142109.00,A,6000.88016,N,03014.45963,E,13.435,150.67,110416,,,A*5D
$GPVTG,150.67,T,,M,13.435,N,24.882,K,A*3C
$GPGGA,142109.00,6000.88016,N,03014.45963,E,1,10,0.95,-0.6,M,15.9,M,,*72
$GPGSA,A,3,24,19,12,17,14,06,32,25,02,03,,,1.70,0.95,1.41*03
$GPGSV,4,1,15,01,03,010,,02,09,151,36,03,06,036,09,06,28,114,39*7B
$GPGSV,4,2,15,12,59,258,27,14,27,314,26,15,04,205,,17,35,058,31*74
$GPGSV,4,3,15,19,58,086,37,22,09,005,,24,63,193,33,25,23,266,20*77
$GPGSV,4,4,15,28,00,086,,32,26,315,28,33,12,230,*43
$GSENSORD,-0.060,-0.120,0.120
$GPRMC,142110.00,A,6000.87723,N,03014.46298,E,11.738,151.08,110416,,,A*53
$GPVTG,151.08,T,,M,11.738,N,21.738,K,A*33
$GPGGA,142110.00,6000.87723,N,03014.46298,E,1,10,0.95,-0.6,M,15.9,M,,*78
$GPGSA,A,3,24,19,12,17,14,06,32,25,02,03,,,1.70,0.95,1.41*03
$GPGSV,4,1,15,01,03,010,,02,09,151,35,03,06,036,09,06,28,114,39*78
$GPGSV,4,2,15,12,59,258,29,14,27,314,25,15,04,205,,17,35,058,31*79
$GPGSV,4,3,15,19,58,086,37,22,09,005,,24,63,193,34,25,23,266,21*71
$GPGSV,4,4,15,28,00,086,,32,26,315,27,33,12,230,*4C
$GSENSORD,-0.060,-0.250,0.060
$GPRMC,142111.00,A,6000.87448,N,03014.46608,E,11.270,150.98,110416,,,A*50
